[
   {
      "coordinates": {
         "lat": "55.917414",
         "lng": "37.569581"
      },
      "address": "Skolkovo",
      "name": "Lamp #45",
      "type": "Unilight",
      "status": "online"
   },
   {
      "coordinates": {
         "lat": "55.850261",
         "lng": "37.349855"
      },
      "address": "Skolkovo",
      "name": "Lamp #21",
      "type": "Unilight",
      "status": "online"
   },
   {
      "coordinates": {
         "lat": "55.762091",
         "lng": "37.411653"
      },
      "address": "Skolkovo",
      "name": "Lamp #73",
      "type": "Unilight",
      "status": "online"
   },
   {
      "coordinates": {
         "lat": "55.689333",
         "lng": "37.351070"
      },
      "address": "Skolkovo",
      "name": "Lamp #13",
      "type": "Unilight",
      "status": "online"
   },
   {
      "coordinates": {
         "lat": "55.767506",
         "lng": "37.674475"
      },
      "address": "Skolkovo",
      "name": "Lamp #14",
      "type": "Unilight",
      "status": "online"
   },
   {
      "coordinates": {
         "lat": "55.723740",
         "lng": "37.811804"
      },
      "address": "Skolkovo",
      "name": "Lamp #15",
      "type": "Unilight",
      "status": "online"
   },
   {
      "coordinates": {
         "lat": "55.659744",
         "lng": "37.696447"
      },
      "address": "Skolkovo",
      "name": "Lamp #16",
      "type": "Unilight",
      "status": "online"
   },
   {
      "coordinates": {
         "lat": "55.646155",
         "lng": "37.550879"
      },
      "address": "Skolkovo",
      "name": "Lamp #17",
      "type": "LoRa",
      "status": "offline"
   },
   {
      "coordinates": {
         "lat": "55.576198",
         "lng": "37.667608"
      },
      "address": "Skolkovo",
      "name": "Lamp #18",
      "type": "LoRa",
      "status": "online"
   },
   {
      "coordinates": {
         "lat": "55.732652",
         "lng": "37.860556"
      },
      "address": "Skolkovo",
      "name": "Lamp #19",
      "type": "LoRa",
      "status": "online"
   }
]
